[
    {
        "id": 1,
        "name": "Camden South End Apartments",
        "lat": 35.21839637897751,
        "long": -80.85287937535088,
        "streetAddress": "1205 S Tryon St",
        "city": "Charlotte",
        "state": "NC",
        "zip": "28203",
        "units": 299,
        "squarefeet": 263661,
        "lastSalePrice": 33500000,
        "lastSaleDate": "2004-06-15",
        "saleType": "building"
    },
    {
        "id": 2,
        "name": "Mosaic South End Apartments",
        "lat": 35.21775214691116,
        "long": -80.85382887727158,
        "streetAddress": "1312 S College St",
        "city": "Charlotte",
        "state": "NC",
        "zip": "28203",
        "units": 269,
        "squarefeet": 255166,
        "lastSalePrice": 44500000,
        "lastSaleDate": "2018-10-29",
        "saleType": "building"
    },
    {
        "id": 3,
        "name": "AVA South End",
        "lat": 35.211573270315405, 
        "long": -80.86492013268692,
        "streetAddress": "335 Doggett St",
        "city": "Charlotte",
        "state": "NC",
        "zip": "28203",
        "units": 164,
        "squarefeet": 148322,
        "lastSalePrice": 52650000,
        "lastSaleDate": "2021-09-23",
        "saleType": "building"
    },
    {
        "id": 4,
        "name": "Link Apartments Mint St",
        "lat": 35.22197346020612, 
        "long": -80.85650277887736,
        "streetAddress": "1200 S Mint St",
        "city": "Charlotte",
        "state": "NC",
        "zip": "28203",
        "units": 259,
        "squarefeet": 242843,
        "lastSalePrice": 6300000,
        "lastSaleDate": "2020-07-02",
        "saleType": "land"
    },
    {
        "id": 5,
        "name": "Cortland South End",
        "lat": 35.20774382421719, 
        "long": -80.86419096271516,
        "streetAddress": "2225 Hawkins St",
        "city": "Charlotte",
        "state": "NC",
        "zip": "28203",
        "units": 331,
        "squarefeet": 370617,
        "lastSalePrice": 104000000,
        "lastSaleDate": "2023-09-13",
        "saleType": "building"
    },
    {
        "id": 6,
        "name": "The Lexington Dilworth",
        "lat": 35.21509205824716, 
        "long": -80.84925384415813,
        "streetAddress": "1106 Euclid Ave",
        "city": "Charlotte",
        "state": "NC",
        "zip": "28203",
        "units": 235,
        "squarefeet": 175570,
        "lastSalePrice": 78560000,
        "lastSaleDate": "2013-12-11",
        "saleType": "building"
    }
]